[
  {
    "country": "AZ",
    "name": "Kerbakhiar",
    "lat": "40.10984",
    "lng": "46.04446"
  },
  {
    "country": "AZ",
    "name": "Qala",
    "lat": "40.44256",
    "lng": "50.16759"
  },
  {
    "country": "AZ",
    "name": "Qax İngiloy",
    "lat": "41.42412",
    "lng": "46.93859"
  },
  {
    "country": "AZ",
    "name": "Qaxbaş",
    "lat": "41.43254",
    "lng": "46.9646"
  },
  {
    "country": "AZ",
    "name": "İsmayıllı",
    "lat": "40.78485",
    "lng": "48.15141"
  },
  {
    "country": "AZ",
    "name": "Yeni Suraxanı",
    "lat": "40.43026",
    "lng": "50.03598"
  },
  {
    "country": "AZ",
    "name": "Gyuzdek",
    "lat": "40.37444",
    "lng": "49.68194"
  },
  {
    "country": "AZ",
    "name": "Geoktschai",
    "lat": "40.65055",
    "lng": "47.74219"
  },
  {
    "country": "AZ",
    "name": "Hövsan",
    "lat": "40.37444",
    "lng": "50.08528"
  },
  {
    "country": "AZ",
    "name": "Goranboy",
    "lat": "40.61028",
    "lng": "46.78972"
  },
  {
    "country": "AZ",
    "name": "Ganja",
    "lat": "40.68278",
    "lng": "46.36056"
  },
  {
    "country": "AZ",
    "name": "Kyadabek",
    "lat": "40.57055",
    "lng": "45.81229"
  }

]